year,start_date,original_date,event_name,status_event,event_location,country,confirmed,canceled,link,continent,Latitude,Longitude
2025,23.04.2025,"Apr 23 - 27, 2025",SwingIN Festival,Registry Event,"Bonn, Nordrhein-Westphalen, Germany",Germany,True,False,http://www.tanzhaus-bonn.de/swingin-festival,EU,,
2025,24.04.2025,"Apr 24 - 28, 2025",Detonation Dance,Registry Event,"Manchester, Manchester, United Kingdom",United Kingdom,True,False,http://www.DetonationDance.com,EU,53.4626401,-2.2372955
2025,24.04.2025,"Apr 24 - 27, 2025",Swingover,Registry Event,"Orlando, FL, USA",United States,True,False,http://www.swingoverevent.com,NA,28.5421109,-81.3790304
2025,24.04.2025,"Apr 24 - 27, 2025",HONEY FEST,Registry Event,"Ufa, Bashkortostan Republic, Russia",Russian Federation,True,False,https://honeyfest-ufa.ru/,EU,54.7261409,55.947499
2025,30.04.2025,"Apr 30 - May 4, 2025",Spring Time Swing,Registry Event,"Deutschland , Germany",Germany,True,False,https://springtimeswing.com/,EU,51.1638175,10.4478313
2025,01.05.2025,"May 1 - 5, 2025",Swing Dance America,Registry Event,"Lake Geneva, Wisconsin",United States,True,False,https://www.swingdanceamerica.com/,NA,42.5918039,-88.4345369
2025,01.05.2025,"May 1 - 4, 2025",BeeMAD,Registry Event,"Madrid, Spain",Spain,True,False,https://beemadwcs.com,EU,40.4167047,-3.7035825
2025,01.05.2025,"May 1 - 5, 2025",Nordic WCS Championships,Registry Event,"Stockholm, Stockholm, Sweden",Sweden,True,False,http://www.nordicwcschamps.com,EU,59.3251172,18.0710935
2025,01.05.2025,"May 1 - 4, 2025",Swingin' Into Spring 2025,Registry Event,"Windsor Locks, CT",United States,True,False,http://www.sis.djkenm.com,NA,41.9281305,-72.643631
2025,08.05.2025,"May 8 - 12, 2025",SOM - Swing of Music,Registry Event,"Wels, Austria",Austria,True,False,https://www.swingofmusic.com/,EU,48.1565472,14.0243752
2025,08.05.2025,"May 8 - 11, 2025",Med in Swing,Trial Event,"Toulon, France",Russian Federation,True,False,http://www.medinswing.rocks,EU,43.1257311,5.9304919
2025,09.05.2025,"May 9 - 11, 2025",Swingsation,Registry Event,"Queensland, Australia",Australia,True,False,https://rawconnection.com.au/swingsation/,OC,-22.1646782,144.5844903
2025,15.05.2025,"May 15 - 18, 2025",SOswing,Registry Event,"Ashland, OR",United States,True,False,http://soswingdance.com,NA,42.1972487,-122.7153995
2025,15.05.2025,"May 15 - 18, 2025",Show Me Showdown,Registry Event,"St. Louis, MO",United States,True,False,http://TheShowMeShowdown.com,NA,38.6280278,-90.1910154
2025,16.05.2025,"May 16 - 19, 2025",Canadian Swing Championships,Registry Event,"Montreal, Quebec, Canada",Canada,True,False,http://canadianswingchampionships.com,NA,45.5031824,-73.5698065
2025,16.05.2025,"May 16 - 18, 2025",Texas Classic,Registry Event,"Austin, Texas, USA",United States,True,False,http://www.thetexasclassic.com,NA,30.2711286,-97.7436995
2025,16.05.2025,"May 16 - 18, 2025",Dance Jam Jack & Jill Weekend,Trial Event,"Washington, DC",United States,True,False,http://www.dancejamproductions.com,NA,38.8950368,-77.0365427
2025,22.05.2025,"May 22 - 26, 2025",USA Grand National Dance Championships,Registry Event,"Atlanta, GA",United States,True,False,http://www.usagrandnationals.com,NA,33.7489924,-84.3902644
2025,23.05.2025,"May 23 - 25, 2025",Nanaimo Dance Fusion,Trial Event,"Nanaimo, British Columbia, Canada",Canada,True,False,http://www.nanaimodancefusion.ca,NA,49.163877,-123.938122
2025,28.05.2025,"May 28 - Jun 2, 2025",French Open WCS,Registry Event,"Paris, france",France,True,False,http://www.fowcs.com,EU,48.8588897,2.320041
2025,29.05.2025,"May 29 - Jun 1, 2025",Michigan Classic,Registry Event,"Detroit, MI",United States,True,False,http://www.michiganclassicswing.com,NA,42.3315509,-83.0466403
2025,30.05.2025,"May 30 - Jun 1, 2025",Next Level Swing,Trial Event,"Gothenburg, Sweden",Sweden,True,False,http://www.next-level.dance,EU,57.7072326,11.9670171
2025,30.05.2025,"May 30 - Jun 1, 2025",Festival City Swing,Trial Event,"Edinburgh, Scotland",United Kingdom,True,False,https://festivalcityswing.co.uk/,EU,55.9533456,-3.1883749
2025,30.05.2025,"May 30 - Jun 1, 2025",Hungarian Open,Registry Event,"Budapest,  Hungary",Hungary,True,False,http://wcs-ho.com,EU,47.4813896,19.1460941
2025,05.06.2025,"Jun 5 - 9, 2025",Jack & Jill O'Rama,Registry Event,"Anaheim, CA, United States",United States,True,False,https://jackandjillorama.com/,NA,33.8347516,-117.911732
2025,05.06.2025,"Jun 5 - 9, 2025",BALTIC SWING,Registry Event,"Gdańsk, Pomorskie, Poland",Poland,True,False,http://www.balticswing.com,EU,54.3482907,18.6540233
2025,05.06.2025,"Jun 5 - 8, 2025",Orange Blossom Dance Festival,Registry Event,"Orlando, FL",United States,True,False,http://www.orangeblossomdance.net,NA,28.5421109,-81.3790304
2025,12.06.2025,"Jun 12 - 15, 2025",D-TOWNSWING,Registry Event,"Boston Club, NRW, Germany",Germany,True,False,http://www.d-townsing.com,EU,51.2052607,6.856152
2025,19.06.2025,"Jun 19 - 22, 2025",Barock Swing Ludwigsburg,Trial Event,"Ludwigsburg, Baden-Württemberg, Deutschland",Germany,True,False,https://lb-barockswing.com/index.php,EU,48.8953937,9.1895147
2025,20.06.2025,"Jun 20 - 22, 2025",SWINGAPALOOZA,Registry Event,"Baton Rouge, LA, US",United States,True,False,http://www.swingapaloozaevent.com,NA,30.4494155,-91.1869659
2025,26.06.2025,"Jun 26 - 29, 2025",Dance N Play,Registry Event,"Redmond, Oregon",United States,True,False,https://dancenplay.com/,NA,44.2726203,-121.173921
2025,26.06.2025,"Jun 26 - 29, 2025",Colorado Country Classic,Registry Event,"Denver, CO",United States,True,False,http://www.coloradocountryclassic.net,NA,39.7392364,-104.984862
2025,26.06.2025,"Jun 26 - 29, 2025",Liberty Swing Dance Championships,Registry Event,"New Brunswick, NJ, New Jersey, USA",United States,True,False,http://www.libertyswing.com,NA,40.4951365,-74.4439254
2025,26.06.2025,"Jun 26 - 30, 2025",NeverlandSwing,Registry Event,"Amsterdam, North-Holland, Netherlands",Netherlands,True,False,http://www.neverlandswing.com,EU,52.3730796,4.8924534
2025,27.06.2025,"Jun 27 - 29, 2025",Swing Fiction,Registry Event,Czech Republic,Czechia,True,False,https://www.swingfiction.cz/,EU,49.7439047,15.3381061
2025,27.06.2025,"Jun 27 - 30, 2025",FRENCH CONNECTION WCS,Trial Event,"Annecy , France",France,True,False,http://FRENCHCONNECTIONWCS.COM,EU,45.8992348,6.1288847
2025,03.07.2025,"Jul 3 - 6, 2025",Phoenix 4th of July,Registry Event,"Phoenix, AZ",United States,True,False,http://phoenix4thofjuly.com,NA,33.4484367,-112.074141
2025,03.07.2025,"Jul 3 - 6, 2025",Wild Wild Westie,Registry Event,"Dallas, Texas",United States,True,False,http://www.WildWildWestie.com,NA,32.7762719,-96.7968559
2025,03.07.2025,"Jul 3 - 7, 2025",Americano Dance Camp,Registry Event,"Samara,  Russia",Russian Federation,True,False,https://vk.com/americano2025 t.me/americamodancecamp,EU,53.1956255,50.1014927
2025,03.07.2025,"Jul 3 - 6, 2025",SaunaSwing,Registry Event,"Ikaalinen, Pirkanmaa, Finland",Finland,True,False,https://ekarolas.com/saunaswing/,EU,61.7701493,23.0633777
2025,10.07.2025,"Jul 10 - 13, 2025",Big Apple Dance Festival,Registry Event,"Morristown, NJ, US",United States,True,False,http://bigapplecountrydance.com,NA,40.7970382,-74.4809868
2025,10.07.2025,"Jul 10 - 13, 2025",MY Swing 2025,Registry Event,"Kuala Lumpur, Selangor, Malaysia",Malaysia,True,False,https://www.myswingopen.com/,AS,3.161605,101.7333644
2025,10.07.2025,"Jul 10 - 13, 2025",Carolina Summer Swing,Trial Event,"Greenville, South Carolina, SC, USA",United States,True,False,https://carolinasummerswing.com/,NA,34.851354,-82.3984882
2025,11.07.2025,"Jul 11 - 13, 2025",SaunaSwing,Registry Event,"Ikaalinen, Pirkanmaa, Finland",Finland,False,False,https://ekarolas.com/saunaswing/,EU,61.7701493,23.0633777
2025,11.07.2025,"Jul 11 - 13, 2025",Mediterranean Open WCS,Trial Event,"Barcelona,  Spain",Spain,True,False,https://mediterraneanopenwcs.com/,EU,41.3828939,2.1774322
2025,17.07.2025,"Jul 17 - 20, 2025",St. Petersburg WCS Nights,Registry Event,"St. Petersburg, Russia",Russian Federation,True,False,http://wcsnights.ru,EU,59.9606739,30.1586551
2025,17.07.2025,"Jul 17 - 20, 2025",Midwest Westie Fest 2025,Registry Event,"Overland Park, Kansas",United States,True,False,http://Www.Midwestwestiefest.com,NA,38.9742502,-94.6851702
2025,18.07.2025,"Jul 18 - 20, 2025",Toronto Open Swing and Hustle Championships,Registry Event,"Toronto, Ontario, Canada",Canada,False,False,http://www.TOSHC.com,NA,43.6534817,-79.3839347
2025,18.07.2025,"Jul 18 - 20, 2025",Rock the Barn,Registry Event,"Grasmyr, Sweden",Sweden,True,False,https://rockthebarn.se/,EU,63.7674774,19.6180725
2025,18.07.2025,"Jul 18 - 20, 2025",Revitalise WCS,Trial Event,"Melbourne, Australia",Australia,True,False,https://withjoy.com/revitalisewcs-melbourne2025/welcome,OC,-37.8142454,144.9631732
2025,24.07.2025,"Jul 24 - 27, 2025",Dance Mardi Gras,Registry Event,"New Orelans, LA, USA",United States,True,False,https://dancemardigras.com/,NA,29.9506153,-90.0871892
2025,24.07.2025,"Jul 24 - 27, 2025",Florida Dance Magic,Registry Event,"Fort Lauderdale, FL, United States",United States,True,False,https://floridadancemagic.com,NA,26.1223084,-80.1433786
2025,25.07.2025,"Jul 25 - 27, 2025",Odyssey West Coast Swing,Registry Event,"Gold Coast, Qld, Australia",Australia,False,False,http://Odysseywcs.dance,OC,-28.0023731,153.4145987
2025,31.07.2025,"Jul 31 - Aug 3, 2025",Sea Sun & Swing Camp (Hiatus in 2025),Registry Event,La Grande Mott,France,True,False,http://www.seasunswing.fr,EU,43.5634903,4.0986508
2025,31.07.2025,"Jul 31 - Aug 3, 2025",New England Dance Festival,Registry Event,"Boston, MA, USA",United States,True,False,http://www.nedancefestival.com,NA,42.3554334,-71.060511
2025,01.08.2025,"Aug 1 - 3, 2025",Arizona Dance Classic,Registry Event,"Phoenix, AZ",United States,False,False,http://www.arizonadanceclassic.com,NA,33.4484367,-112.074141
2025,01.08.2025,"Aug 1 - 3, 2025",Bristol Swing Fiesta,Registry Event,"Bristol, UK",United Kingdom,True,False,https://www.bristolcityswing.com/bsf,EU,51.4538022,-2.5972985
2025,01.08.2025,"Aug 1 - 3, 2025",Lisbon Westie Fest,Trial Event,"Lisbon,  Portugal",Portugal,True,False,http://www.lisbonwestiefest.com,EU,38.7077507,-9.1365919
2025,01.08.2025,"Aug 1 - 3, 2025",Warsaw Summer Nights Westival,Trial Event,"Warsaw, Poland",Poland,True,False,https://www.summernightswestival.com/,EU,52.2319581,21.0067249
2025,07.08.2025,"Aug 7 - 11, 2025",Swing Fling,Registry Event,Herndon  VA,United States,True,False,http://www.swingfling.com,NA,38.9695316,-77.3859479
2025,07.08.2025,"Aug 7 - 10, 2025",German Open West Coast Swing,Registry Event,"Freiburg, Baden-Württemberg, Germany",Germany,True,False,https://go-wcs.com,EU,47.9960901,7.8494005
2025,07.08.2025,"Aug 7 - 10, 2025",Swingtacular: The Galactic Open,Registry Event,"Burlingame, CA",United States,True,False,http://www.DanceGeekProductions.Art,NA,37.5780965,-122.3473099
2025,08.08.2025,"Aug 8 - 10, 2025",Lonestar Invitational,Registry Event,"Austin, Tx, Travis",United States,False,False,http://Www.lonestarcountrydance.com.,NA,30.2711286,-97.7436995
2025,14.08.2025,"Aug 14 - 17, 2025",SwingTime Denver,Registry Event,"Denver, CO,",United States,False,False,http://www.swingtimewcs.com,NA,39.7392364,-104.984862
2025,15.08.2025,"Aug 15 - 17, 2025",Grand Party Sofia (GPS),Trial Event,"Sofia,  Bulgaria",,True,False,https://wcs-gps.com/,,42.6792938,23.3011089
2025,15.08.2025,"Aug 15 - 18, 2025",UpTown Swing,Registry Event,"Stockholm, Sweden",Sweden,True,False,http://www.uptownswing.se,EU,59.3251172,18.0710935
2025,15.08.2025,"Aug 15 - 17, 2025",Chicagoland Country and Swing Dance Festival,Registry Event,"Rosemont, IL",United States,True,False,http://www.chicagolanddancefestival.com,NA,41.9941334,-87.8756737
2025,21.08.2025,"Aug 21 - 24, 2025",Summer Hummer,Registry Event,"Boston, MA, United States",United States,True,False,https://summerhummerboston.com/,NA,42.3554334,-71.060511
2025,21.08.2025,"Aug 21 - 24, 2025",The Bend Connection,Registry Event,"Bend, Oregon",United States,True,False,http://thebendconnection.com,NA,44.0581728,-121.3153096
2025,22.08.2025,"Aug 22 - 24, 2025",Shakedown Swing,Registry Event,"Christchurch, New Zealand",New Zealand,False,False,https://code03swing.com/shakedown,OC,-43.530955,172.6364343
2025,28.08.2025,"Aug 28 - Sep 1, 2025",Desert City Swing,Registry Event,"Phoenix, AZ",United States,True,False,http://www.desertcityswing.com,NA,33.4484367,-112.074141
2025,28.08.2025,"Aug 28 - Sep 1, 2025",Rolling Swing,Registry Event,"LYON, Rhones, France",France,True,False,http://www.frenchywesty.com,EU,,
2025,28.08.2025,"Aug 28 - 31, 2025",Jax Westie Fest,Registry Event,"Jacksonville, FL",United States,True,False,http://www.jaxwestiefest.com,NA,30.3321838,-81.655651
2025,28.08.2025,"Aug 28 - Sep 1, 2025",South Bay Dance Fling,Registry Event,"San Jose, CA, California, USA",United States,True,False,https://sbdf.dance/,NA,37.3361663,-121.890591
2025,04.09.2025,"Sep 4 - 7, 2025",Trilogy Swing,Registry Event,"Raleigh, North Carolina, United States",United States,True,False,https://www.trilogywcs.com/,NA,35.7803977,-78.6390989
2025,04.09.2025,"Sep 4 - 7, 2025",Korea Westival 2025,Registry Event,"SEOUL, Seoul, South Korea","Korea, Republic of",True,False,http://koreawestival.com,AS,37.5534363,126.9697994
2025,11.09.2025,"Sep 11 - 14, 2025",Bavarian Open West Coast Swing Championships,Registry Event,"Munich, Bavaria, Germany",Germany,True,False,https://bavarianopen.com,EU,48.1371079,11.5753822
2025,11.09.2025,"Sep 11 - 14, 2025",Best of the Best WCS,Registry Event,"Sydney, NSW, Australia",Australia,True,False,https://www.bestofthebestwcs.com/,OC,-33.8698439,151.2082848
2025,18.09.2025,"Sep 18 - 22, 2025",Retaliation Swing,Registry Event,"Seattle, WA, USA",United States,True,False,https://www.retaliationswing.com,NA,47.6038321,-122.330062
2025,19.09.2025,"Sep 19 - 21, 2025",WCS Party,Registry Event,"Vienna, Austria",Austria,True,False,https://www.wcsparty.com/,EU,48.2083537,16.3725042
2025,19.09.2025,"Sep 19 - 21, 2025",Philly Swing Dance Classic,Registry Event,"WILMINGTON,  Delaware",United States,True,False,https://phillyswing.com/,NA,39.7459468,-75.546589
2025,19.09.2025,"Sep 19 - 22, 2025",Finnfest,Registry Event,"Helsinki, Uusimaa, Finland",Finland,True,False,http://www.finnfest.fi,EU,60.1674881,24.9427473
2025,19.09.2025,"Sep 19 - 21, 2025",Austin Rocks,Registry Event,"Austin, Tx",United States,True,False,http://www.atxrox.com,NA,30.2711286,-97.7436995
2025,25.09.2025,"Sep 25 - 28, 2025",Meet Me in St. Louis Swing Dance Championships,Registry Event,"St. Louis, MO",United States,True,False,http://www.mmisl.com,NA,38.6280278,-90.1910154
2025,25.09.2025,"Sep 25 - 29, 2025",Midland Swing Open,Registry Event,"London, UK",United Kingdom,True,False,http://www.MidlandSwingOpen.com,EU,51.5074456,-0.1277653
2025,25.09.2025,"Sep 25 - 29, 2025",Mooseland Swing 2025,Registry Event,"Östersund, Jämtland, Sweden",Sweden,True,False,https://mooselandswing.com/,EU,63.1793655,14.6357061
2025,02.10.2025,"Oct 2 - 5, 2025",Atlanta Swing Classic,Registry Event,"Atlanta, GA",United States,True,False,https://atlantaswingclassic.com/,NA,33.7489924,-84.3902644
2025,08.10.2025,"Oct 8 - 12, 2025",The Aloha Open,Registry Event,"Wailea,  Maui, Hawaii, USA",United States,True,False,http://www.alohaopenwcs.com,NA,20.6871749,-156.4390415
2025,09.10.2025,"Oct 9 - 12, 2025",Milan Modern Swing 2025,Registry Event,"Milan,  Italy",Italy,True,False,https://www.westcoastswingmilan.com/,EU,45.4641943,9.1896346
2025,09.10.2025,"Oct 9 - 12, 2025",Paradise dance festival,Registry Event,"Irvine Orange County, Ca, Usa",United States,True,False,http://www.paradisecountrydancefestival.com,NA,33.6856969,-117.825981
2025,10.10.2025,"Oct 10 - 12, 2025",Go West SwingFest,Registry Event,"Perth, Western Australia",Australia,True,False,https://www.gowestswingfest.au,OC,-31.9558933,115.8605855
2025,16.10.2025,"Oct 16 - 20, 2025",Boogie by the Bay,Registry Event,"Burlingame, CA",United States,True,False,https://boogiebythebay.com,NA,37.5780965,-122.3473099
2025,16.10.2025,"Oct 16 - 19, 2025",The New Zealand West Coast Swing Open,Registry Event,"Auckland, New Zealand",New Zealand,True,False,https://www.streetswing.co.nz/the-new-zealand-open,OC,-36.852095,174.7631803
2025,17.10.2025,"Oct 17 - 19, 2025",Montreal Westie Fest,Registry Event,"Montréal, Québec, Canada",Canada,True,False,http://montrealwestiefest.com,NA,45.5031824,-73.5698065
2025,17.10.2025,"Oct 17 - 19, 2025",Swustlicious,Registry Event,"Philadelphia, PA",United States,True,False,http://www.swustlicious.com,NA,39.9527237,-75.1635262
2025,22.10.2025,"Oct 22 - 25, 2025",Augsburg Westie Station,Registry Event,"Augsburg, Bavaria, Germany",Germany,True,False,https://www.augsburgwestiestation.com/,EU,48.3690341,10.8979522
2025,23.10.2025,"Oct 23 - 26, 2025",Swing City Chicago,Registry Event,"Chicago, IL",United States,True,False,https://swingcitychicago.com,NA,41.8755616,-87.6244212
2025,23.10.2025,"Oct 23 - 26, 2025",Halloween SwingThing,Registry Event,"Costa Mesa, CA",United States,True,False,http://HSTswing.com,NA,33.6633386,-117.903317
2025,24.10.2025,"Oct 24 - 26, 2025",Swingside Invitational,Registry Event,"Liège, Liège, Belgium",Belgium,True,False,http://www.swingside-invitational.com,EU,50.6450944,5.5736112
2025,24.10.2025,"Oct 24 - 26, 2025",SSAS- Spooky Albany Swing Spectacular,Trial Event,"Albany, New York",United States,True,False,http://www.spookyalbanyswing.com,NA,42.6511674,-73.754968
2025,24.10.2025,"Oct 24 - 26, 2025",WCS Festival,Registry Event,"Duesseldorf, Germany",Germany,True,False,http://www.wcsfestival.de,EU,51.2254018,6.7763137
2025,30.10.2025,"Oct 30 - Nov 3, 2025",Warsaw Halloween Swing,Registry Event,"Warsaw, Mazowieckie, Poland",Poland,True,False,http://www.warsawhalloweenswing.com,EU,52.2319581,21.0067249
2025,30.10.2025,"Oct 30 - Nov 2, 2025",Mountain Magic Dance Convention,Registry Event,"South Lake Tahoe, NV, USA",United States,True,False,https://mountainmagic.dance/,NA,38.9604635,-119.9415697
2025,30.10.2025,"Oct 30 - Nov 2, 2025","Scandinavian Open WCS ""SNOW""",Registry Event,"Stockholm, Sweden, Sweden",Sweden,True,False,http://www.snowcs.se,EU,46.99189,-68.1421965
2025,31.10.2025,"Oct 31 - Nov 2, 2025",Rocket City Swing,Registry Event,"Huntsville, AL, USA",United States,True,False,https://rocketcityswing.com/,NA,34.729847,-86.5859011
2025,06.11.2025,"Nov 6 - 9, 2025",Simply Adelaide West Coast Swing,Registry Event,"Adelaide, South Australia, Australia",Australia,True,False,http://www.simplyadelaidewcs.com.au,OC,-34.9281805,138.5999312
2025,07.11.2025,"Nov 7 - 10, 2025",Westie's Angels,Registry Event,"LYON, France",France,True,False,http://www.frenchywesty.com,EU,45.7578137,4.8320114
2025,07.11.2025,"Nov 7 - 9, 2025",Autumn Swing Challenge,Registry Event,"Budapest, Hungary",Hungary,True,False,http://asc-budapest.com,EU,47.4813896,19.1460941
2025,07.11.2025,"Nov 7 - 10, 2025",Moscow Westie Fest Gala Edition,Registry Event,"Moscow,  Russia",Russian Federation,True,False,http://westiefest.org/,EU,55.625578,37.6063916
2025,12.11.2025,"Nov 12 - 17, 2025",Sea to Sky Seattle,Registry Event,"Seattle, WA, United States",United States,True,False,http://Seatoskywcs.com,NA,47.6038321,-122.330062
2025,13.11.2025,"Nov 13 - 16, 2025",Midnight Madness WCS,Registry Event,"Dallas Ft. Worth, Texas",United States,True,False,http://www.MidnightMadnessWCS.com,NA,32.8965194,-97.0465221
2025,13.11.2025,"Nov 13 - 16, 2025",DC Swing eXperience (DCSX),Registry Event,"Herndon, VA",United States,True,False,http://www.dcswingexperience.com,NA,38.9695316,-77.3859479
2025,14.11.2025,"Nov 14 - 16, 2025",Flowstate | West Coast Swing & Zouk Festival,Registry Event,"London,  UK",United Kingdom,True,False,https://eastonswing.com/west-coast-swing-events/world-swing-dance-council/flowstate-west-coast-swing-zouk-festival-eastonswing/,EU,51.5074456,-0.1277653
2025,20.11.2025,"Nov 20 - 23, 2025",Northeast Swing Classic,Trial Event,"Providence, RI, USA",United States,True,False,http://www.northeastswingclassic.com,NA,41.8239891,-71.4128343
2025,26.11.2025,"Nov 26 - 30, 2025",The Open World Swing Dance Championships,Registry Event,"Burbank, CA",United States,True,False,http://www.theopenswing.com,NA,34.1812089,-118.307201
2025,27.11.2025,"Nov 27 - 30, 2025",CASH Bash,Registry Event,"Cleveland, OH",United States,True,False,https://cashdanceclub.org/cash-bash/,NA,41.4996574,-81.6936772
2025,04.12.2025,"Dec 4 - 7, 2025","The After Party ""TAP""",Registry Event,"Irvine, CA,",United States,True,False,http://www.tapwcs.com,NA,33.6856969,-117.825981
2025,11.12.2025,"Dec 11 - 15, 2025",Santa Swing,Trial Event,"Kraków, malopolska, Polska",Poland,True,False,http://santaswing.pl,EU,,
2025,28.12.2025,Dec 28 2025 - Jan 1 2026,Westie Gala,Registry Event,"Stockholm,  Sweden",Sweden,True,False,http://www.westiegala.com,EU,59.3251172,18.0710935
2025,30.12.2025,Dec 30 2025 - Jan 4 2026,Floorplay Swing Vacation,Registry Event,"Orlando, Florida, United States",United States,True,False,http://www.floorplayswingvacation.com,NA,28.5421109,-81.3790304
2025,31.12.2025,Dec 31 2025 - Jan 4 2026,Spotlight New Year's Celebration,Registry Event,"Nashville, Tennesse, USA",United States,True,False,http://www.spotlightnewyears.com,NA,,
2025,31.12.2025,Dec 31 2025 - Jan 5 2026,SwingVester 2025,Registry Event,"Wels, Austria",Austria,True,False,http://www.swingvester.com,EU,48.1565472,14.0243752
2025,31.12.2025,Dec 31 2025 - Jan 4 2026,Countdown Swing Boston,Registry Event,"Boston, MA, United States",United States,True,False,https://countdownswingboston.com/,NA,42.3554334,-71.060511
2026,06.01.2026,"Jan 6 - 10, 2026",BudaFest Open WCS Championships,Registry Event,"Budapest, Budapest, Hungary",Hungary,True,False,http://wcs-budafest.com,EU,47.4978789,19.0402383
2026,15.01.2026,"Jan 15 - 19, 2026",Austin Swing Dance Championships,Registry Event,"Austin, TX, USa",United States,True,False,https://austinswingdance.com,NA,30.2711286,-97.7436995
2026,22.01.2026,"Jan 22 - 25, 2026",Derby City Swing,Registry Event,"Louisville, Kentucky, USA",United States,True,False,https://derbycityswing.com/,NA,38.2542376,-85.759407
2026,22.01.2026,"Jan 22 - 26, 2026",Swing Resolution,Registry Event,"Edinburgh, Lothian, Scotland, United Kingdom",United Kingdom,True,False,http://www.swingresolution.com,EU,55.7954464,-3.0662449
2026,23.01.2026,"Jan 23 - 25, 2026",Freedom Swing Dance Challenge,Registry Event,"WILMINGTON, Delaware, United States",United States,True,False,https://freedomswingdance.com/,NA,39.7459468,-75.546589
2026,29.01.2026,"Jan 29 - Feb 2, 2026",Charlotte WestieFest,Registry Event,"Charlotte, NC",United States,True,False,https://www.charlottewestiefest.com/,NA,35.2272086,-80.8430827
2026,05.02.2026,"Feb 5 - 8, 2026",Swingtzerland 2026,Registry Event,"Zurich,  Swintzerland",Switzerland,True,False,https://swingtzerland.com/,EU,,
2026,05.02.2026,"Feb 5 - 8, 2026",Swing & Snow,Registry Event,"St. Petersburg, Russia",Russian Federation,True,False,https://swingandsnow.ru/,EU,59.9606739,30.1586551
2026,05.02.2026,"Feb 5 - 8, 2026",Waterloo Ontario Open West Coast Swing Championships,Trial Event,"Waterloo, Ontario, Canada",Canada,True,False,http://www.waterlooopenwcs.com,NA,43.4652699,-80.5222961
2026,06.02.2026,"Feb 6 - 8, 2026",Trinity Swing,Registry Event,"Dundalk, Co, Louth, Ireland",,True,False,http://Trinityswing.com,,54.0046033,-6.4008879
2026,12.02.2026,"Feb 12 - 15, 2026",Capital Swing Convention,Registry Event,"Sacramento, CA, USA",United States,True,False,https://www.capitalswingconvention.com/,NA,38.5810606,-121.493895
2026,13.02.2026,"Feb 13 - 15, 2026",Prague Alchemy Swing,Trial Event,"Prague, Czech Republic",Czechia,True,False,https://praguealchemyswing.cz/,EU,50.0596288,14.4464593
2026,17.02.2026,"Feb 17 - 21, 2026",Euro Dance Festival,Registry Event,"Rust, Baden-Württemberg, Germany",Germany,True,False,https://www.euro-dance-festival.com,EU,48.2659347,7.7263213
2026,19.02.2026,"Feb 19 - 22, 2026",Winter Coast,Registry Event,"Leppävirta, Northern Savonia, Finland",Finland,True,False,http://www.wintercoastswing.com,EU,,
2026,19.02.2026,"Feb 19 - 22, 2026",Arousa Westie Fest,Registry Event,"Sanxenxo, Pontevedra, Spain",Spain,True,False,https://www.arousawestiefest.com,EU,42.4003559,-8.8065952
2026,27.02.2026,"Feb 27 - Mar 1, 2026",Flow Festival NYC,Trial Event,"New York City, NY, United States",United States,True,False,https://www.flowfest.nyc,NA,40.7372329,-73.862477
2026,05.03.2026,"Mar 5 - 9, 2026",MADjam (Mid Atlantic Dance Jam),Registry Event,"Reston, VA",United States,True,False,http://www.atlanticdancejam.com,NA,38.953282,-77.3464516
2026,12.03.2026,"Mar 12 - 15, 2026",West In Lyon,Registry Event,"Lyon, Rhône, France",France,True,False,http://www.west-in-lyon.fr,EU,45.7578137,4.8320114
2026,19.03.2026,"Mar 19 - 22, 2026",Novice Invitational,Registry Event,"Houston, Texas",United States,True,False,http://Htownthrowdownwcs.com,NA,29.7589382,-95.3676974
2026,26.03.2026,"Mar 26 - 30, 2026",UK West Coast Swing Championships,Registry Event,"Sipson, West Drayton, London, UK",United States,True,False,https://www.ukwcschamps.com/,NA,51.4930316,-0.4503216
2026,26.03.2026,"Mar 26 - 30, 2026",5280 Westival,Registry Event,"Denver, CO",United States,True,False,https://www.5280westival.com,NA,39.7392364,-104.984862
2026,26.03.2026,"Mar 26 - 29, 2026",H-Town Throw Down,Registry Event,"Houston, Texas, United States",United States,True,False,http://htownthrowdownwcs.com,NA,29.7589382,-95.3676974
2026,02.04.2026,"Apr 2 - 5, 2026",Easter Swing 2026,Registry Event,"Seattle, WA, United States",United States,True,False,https://www.easterswing.org/,NA,47.6038321,-122.330062
2026,10.04.2026,"Apr 10 - 12, 2026",WESTY NANTES,Registry Event,"NANTES, Loire-Atlantique, France",France,True,False,http://44 Danse Studio,EU,47.2186371,-1.5541362
2026,08.05.2026,"May 8 - 10, 2026",SOM-Swing of Music 2026,Registry Event,"Wels,  Austria",Austria,True,False,https://www.swingofmusic.com/,EU,48.1565472,14.0243752
2026,24.09.2026,"Sep 24 - 27, 2026",Calgary Town Open,Registry Event,"Calgary, Alberta, Canada",Canada,True,False,http://TBD,NA,51.0456064,-114.057541
2026,01.10.2026,"Oct 1 - 4, 2026",Atlanta Swing Classic,Registry Event,"Atlanta, GA, USA",United States,True,False,https://www.atlantaswingclassic.com/,NA,33.7489924,-84.3902644
2026,12.11.2026,"Nov 12 - 15, 2026",Midnight Madness WCS 2026,Registry Event,"Dallas Ft. Worth, Texas, United States",United States,True,False,http://www.MidnightMadnessWCS.com,NA,32.8965194,-97.0465221
2027,07.10.2027,"Oct 7 - 10, 2027",Atlanta Swing Classic,Registry Event,"Atlanta, Georgia, USA",United States,True,False,https://www.atlantaswingclassic.com/,NA,33.7489924,-84.3902644
2028,28.09.2028,"Sep 28 - Oct 1, 2028",Atlanta Swing Classic,Registry Event,"Atlanta, GA, USA",United States,True,False,https://www.atlantaswingclassic.com/,NA,33.7489924,-84.3902644
